{"resourceType":"Location","id":"81c75a54-2b95-3fdf-9327-b74df8630869","meta":{"profile":["http://hl7.org/fhir/us/core/StructureDefinition/us-core-location"]},"identifier":[{"system":"https://github.com/synthetichealth/synthea","value":"81c75a54-2b95-3fdf-9327-b74df8630869"}],"status":"active","name":"Fitchburg Outpatient Clinic","telecom":[{"system":"phone","value":"978-342-9781 Or 978-342-9781"}],"address":{"line":["881 Main Street"],"city":"Fitchburg","state":"MA","postalCode":"01420","country":"US"},"position":{"longitude":-71.80521,"latitude":42.586487},"managingOrganization":{"identifier":{"system":"https://github.com/synthetichealth/synthea","value":"74ab949d-17ac-3309-83a0-13b4405c66aa"},"display":"Fitchburg Outpatient Clinic"}}
{"resourceType":"Location","id":"4ffcc0ae-89a2-3f3a-bad5-e02b72bf9c03","meta":{"profile":["http://hl7.org/fhir/us/core/StructureDefinition/us-core-location"]},"identifier":[{"system":"https://github.com/synthetichealth/synthea","value":"4ffcc0ae-89a2-3f3a-bad5-e02b72bf9c03"}],"status":"active","name":"EASTPOINTE REHAB CENTER LLC","telecom":[{"system":"phone","value":"6178845700"}],"address":{"line":["255 CENTRAL AVE"],"city":"CHELSEA","state":"MA","postalCode":"021503508","country":"US"},"position":{"longitude":-71.02650270378646,"latitude":42.38804035},"managingOrganization":{"identifier":{"system":"https://github.com/synthetichealth/synthea","value":"a58ec72a-cf43-3de5-88c1-de2fbec976a5"},"display":"EASTPOINTE REHAB CENTER LLC"}}
{"resourceType":"Location","id":"94f02202-bbd4-305a-8dc3-96d215115da7","meta":{"profile":["http://hl7.org/fhir/us/core/StructureDefinition/us-core-location"]},"identifier":[{"system":"https://github.com/synthetichealth/synthea","value":"94f02202-bbd4-305a-8dc3-96d215115da7"}],"status":"active","name":"PARK PLACE REHABILITATION & SKILLED CARE CENTER","telecom":[{"system":"phone","value":"6173612388"}],"address":{"line":["113 CENTRAL AVE"],"city":"HYDE PARK","state":"MA","postalCode":"021363021","country":"US"},"position":{"longitude":-71.1187885119897,"latitude":42.26077065},"managingOrganization":{"identifier":{"system":"https://github.com/synthetichealth/synthea","value":"2b376b69-72ac-3d68-aceb-018e82b8fc8f"},"display":"PARK PLACE REHABILITATION & SKILLED CARE CENTER"}}
{"resourceType":"Location","id":"a4e834bc-a3d9-321b-938c-d35ea40b2fe6","meta":{"profile":["http://hl7.org/fhir/us/core/StructureDefinition/us-core-location"]},"identifier":[{"system":"https://github.com/synthetichealth/synthea","value":"a4e834bc-a3d9-321b-938c-d35ea40b2fe6"}],"status":"active","name":"INTERNATIONAL HEALTH SOLUTIONS","telecom":[{"system":"phone","value":"9786891907"}],"address":{"line":["319A ALLSTON STREET"],"city":"BRIGHTON","state":"MA","postalCode":"021357652","country":"US"},"position":{"longitude":-71.139804,"latitude":42.345093},"managingOrganization":{"identifier":{"system":"https://github.com/synthetichealth/synthea","value":"fe675917-7b09-3afd-a6e6-128cc4de4734"},"display":"INTERNATIONAL HEALTH SOLUTIONS"}}
{"resourceType":"Location","id":"a6898a53-4620-3213-b390-bd90c7527acf","meta":{"profile":["http://hl7.org/fhir/us/core/StructureDefinition/us-core-location"]},"identifier":[{"system":"https://github.com/synthetichealth/synthea","value":"a6898a53-4620-3213-b390-bd90c7527acf"}],"status":"active","name":"ALLIANCE HEALTH AT MARINA BAY","telecom":[{"system":"phone","value":"6177695100"}],"address":{"line":["2 SEAPORT DRIVE"],"city":"QUINCY","state":"MA","postalCode":"021711599","country":"US"},"position":{"longitude":-71.03019020136307,"latitude":42.29287335},"managingOrganization":{"identifier":{"system":"https://github.com/synthetichealth/synthea","value":"2e1eaaf1-ebb0-332c-8921-f48e15b91879"},"display":"ALLIANCE HEALTH AT MARINA BAY"}}
{"resourceType":"Location","id":"bab3feda-7fb1-350e-9bf5-584d3590ec19","meta":{"profile":["http://hl7.org/fhir/us/core/StructureDefinition/us-core-location"]},"identifier":[{"system":"https://github.com/synthetichealth/synthea","value":"bab3feda-7fb1-350e-9bf5-584d3590ec19"}],"status":"active","name":"BENJAMIN HEALTHCARE CENTER","telecom":[{"system":"phone","value":"6177381500"}],"address":{"line":["120 FISHER AVENUE"],"city":"BOSTON","state":"MA","postalCode":"021203320","country":"US"},"position":{"longitude":-71.1051603,"latitude":42.3276141},"managingOrganization":{"identifier":{"system":"https://github.com/synthetichealth/synthea","value":"02c936e2-3aee-38b2-88a4-81f3689b7bb7"},"display":"BENJAMIN HEALTHCARE CENTER"}}
{"resourceType":"Location","id":"da498a00-066c-32cf-9db2-4363dcb74561","meta":{"profile":["http://hl7.org/fhir/us/core/StructureDefinition/us-core-location"]},"identifier":[{"system":"https://github.com/synthetichealth/synthea","value":"da498a00-066c-32cf-9db2-4363dcb74561"}],"status":"active","name":"SOUTH END COMMUNITY HEALTH CENTER INC","telecom":[{"system":"phone","value":"6174252000"}],"address":{"line":["1601 WASHINGTON STREET"],"city":"BOSTON","state":"MA","postalCode":"021181951","country":"US"},"position":{"longitude":-71.0748562,"latitude":42.3381394},"managingOrganization":{"identifier":{"system":"https://github.com/synthetichealth/synthea","value":"bb3d48eb-0c30-34f4-8950-790fc984741b"},"display":"SOUTH END COMMUNITY HEALTH CENTER INC"}}
{"resourceType":"Location","id":"ff8b4bf7-6d5b-3c61-ae06-d4dce23241ae","meta":{"profile":["http://hl7.org/fhir/us/core/StructureDefinition/us-core-location"]},"identifier":[{"system":"https://github.com/synthetichealth/synthea","value":"ff8b4bf7-6d5b-3c61-ae06-d4dce23241ae"}],"status":"active","name":"LYNN URGENT CARE LLC","telecom":[{"system":"phone","value":"6178939901"}],"address":{"line":["776 WESTERN AVE"],"city":"LYNN","state":"MA","postalCode":"019052408","country":"US"},"position":{"longitude":-70.9494939,"latitude":42.466763},"managingOrganization":{"identifier":{"system":"https://github.com/synthetichealth/synthea","value":"a14e698d-a9ba-3eae-9c8b-682ec726433d"},"display":"LYNN URGENT CARE LLC"}}
{"resourceType":"Location","id":"716306d2-bd34-328b-babc-212cad0241ab","meta":{"profile":["http://hl7.org/fhir/us/core/StructureDefinition/us-core-location"]},"identifier":[{"system":"https://github.com/synthetichealth/synthea","value":"716306d2-bd34-328b-babc-212cad0241ab"}],"status":"active","name":"SOUTH COVE COMMUNITY HEALTH CENTER, INC","telecom":[{"system":"phone","value":"6174827555"}],"address":{"line":["885 WASHINGTON ST"],"city":"BOSTON","state":"MA","postalCode":"021111415","country":"US"},"position":{"longitude":-71.064924,"latitude":42.3479909},"managingOrganization":{"identifier":{"system":"https://github.com/synthetichealth/synthea","value":"4c1a8ea6-b690-3c28-a02e-ebd82190ee65"},"display":"SOUTH COVE COMMUNITY HEALTH CENTER, INC"}}
{"resourceType":"Location","id":"2694739a-893f-362e-88ea-c1547f474d7a","meta":{"profile":["http://hl7.org/fhir/us/core/StructureDefinition/us-core-location"]},"identifier":[{"system":"https://github.com/synthetichealth/synthea","value":"2694739a-893f-362e-88ea-c1547f474d7a"}],"status":"active","name":"URGENT CARE MEDICAL ASSOCIATES, LLC","telecom":[{"system":"phone","value":"2038850808"}],"address":{"line":["31 OLD ROUTE 7"],"city":"WESTWOOD","state":"MA","postalCode":"020902333","country":"US"},"position":{"longitude":-71.2244987,"latitude":42.2139873},"managingOrganization":{"identifier":{"system":"https://github.com/synthetichealth/synthea","value":"5ba6765a-f335-36b0-9c6a-6bb494c5330d"},"display":"URGENT CARE MEDICAL ASSOCIATES, LLC"}}
{"resourceType":"Location","id":"a76790f3-20a5-3e94-bcb6-754d6624a38b","meta":{"profile":["http://hl7.org/fhir/us/core/StructureDefinition/us-core-location"]},"identifier":[{"system":"https://github.com/synthetichealth/synthea","value":"a76790f3-20a5-3e94-bcb6-754d6624a38b"}],"status":"active","name":"MELROSEWAKEFIELD HEALTHCARE, INC","telecom":[{"system":"phone","value":"7819793050"}],"address":{"line":["170 GOVERNORS AVE"],"city":"MELROSE","state":"MA","postalCode":"021763225","country":"US"},"position":{"longitude":-71.064182,"latitude":42.4564323},"managingOrganization":{"identifier":{"system":"https://github.com/synthetichealth/synthea","value":"b6eeaaf7-1683-3bcb-b6ee-81ce304636ef"},"display":"MELROSEWAKEFIELD HEALTHCARE, INC"}}
{"resourceType":"Location","id":"c41f517c-3dca-3fc6-9f6d-fa86901a093e","meta":{"profile":["http://hl7.org/fhir/us/core/StructureDefinition/us-core-location"]},"identifier":[{"system":"https://github.com/synthetichealth/synthea","value":"c41f517c-3dca-3fc6-9f6d-fa86901a093e"}],"status":"active","name":"743 MAIN STREET OPERATOR LLC","telecom":[{"system":"phone","value":"7816627500"}],"address":{"line":["743 MAIN ST"],"city":"MELROSE","state":"MA","postalCode":"021762707","country":"US"},"position":{"longitude":-71.06216841036309,"latitude":42.460108950000006},"managingOrganization":{"identifier":{"system":"https://github.com/synthetichealth/synthea","value":"14932db8-e179-331d-98ad-dc1c352cb6d3"},"display":"743 MAIN STREET OPERATOR LLC"}}
{"resourceType":"Location","id":"54f6e0ea-130a-3704-91e9-4cfb7b0a64b7","meta":{"profile":["http://hl7.org/fhir/us/core/StructureDefinition/us-core-location"]},"identifier":[{"system":"https://github.com/synthetichealth/synthea","value":"54f6e0ea-130a-3704-91e9-4cfb7b0a64b7"}],"status":"active","name":"BOSTON HEALTH CARE FOR THE HOMELESS PROGRAM INC","telecom":[{"system":"phone","value":"6179830351"}],"address":{"line":["170 MORTON ST"],"city":"BOSTON","state":"MA","postalCode":"021303735","country":"US"},"position":{"longitude":-71.10124351911541,"latitude":42.299067750000006},"managingOrganization":{"identifier":{"system":"https://github.com/synthetichealth/synthea","value":"ace1ac31-036a-38fd-b451-b3b87157c717"},"display":"BOSTON HEALTH CARE FOR THE HOMELESS PROGRAM INC"}}
{"resourceType":"Location","id":"a98309fe-6acd-30f8-81e8-a4a947138296","meta":{"profile":["http://hl7.org/fhir/us/core/StructureDefinition/us-core-location"]},"identifier":[{"system":"https://github.com/synthetichealth/synthea","value":"a98309fe-6acd-30f8-81e8-a4a947138296"}],"status":"active","name":"CAMBRIDGE PUBLIC HEALTH COMMISSION","telecom":[{"system":"phone","value":"6176651000"}],"address":{"line":["1493 CAMBRIDGE ST"],"city":"SOMERVILLE","state":"MA","postalCode":"021431408","country":"US"},"position":{"longitude":-71.0994968,"latitude":42.3875968},"managingOrganization":{"identifier":{"system":"https://github.com/synthetichealth/synthea","value":"18061fd5-fda8-3e2d-87f0-0f3c87211bcc"},"display":"CAMBRIDGE PUBLIC HEALTH COMMISSION"}}
{"resourceType":"Location","id":"1030f67d-5077-39d4-8157-748651c7617e","meta":{"profile":["http://hl7.org/fhir/us/core/StructureDefinition/us-core-location"]},"identifier":[{"system":"https://github.com/synthetichealth/synthea","value":"1030f67d-5077-39d4-8157-748651c7617e"}],"status":"active","name":"FENWAY COMMUNITY HEALTH CENTER, INC","telecom":[{"system":"phone","value":"6172477555"}],"address":{"line":["142 BERKELEY ST"],"city":"BOSTON","state":"MA","postalCode":"021164608","country":"US"},"position":{"longitude":-71.0721378,"latitude":42.3489076},"managingOrganization":{"identifier":{"system":"https://github.com/synthetichealth/synthea","value":"c64c848c-0315-3115-87fa-80c360bb6a73"},"display":"FENWAY COMMUNITY HEALTH CENTER, INC"}}
{"resourceType":"Location","id":"0fad7332-cad5-3bd6-b6cd-27fc9b76267f","meta":{"profile":["http://hl7.org/fhir/us/core/StructureDefinition/us-core-location"]},"identifier":[{"system":"https://github.com/synthetichealth/synthea","value":"0fad7332-cad5-3bd6-b6cd-27fc9b76267f"}],"status":"active","name":"BRIGHAM AND WOMEN'S FAULKNER HOSPITAL, INC.","telecom":[{"system":"phone","value":"6179837470"}],"address":{"line":["1153 CENTRE ST"],"city":"BOSTON","state":"MA","postalCode":"021303446","country":"US"},"position":{"longitude":-71.12855793387442,"latitude":42.3017598},"managingOrganization":{"identifier":{"system":"https://github.com/synthetichealth/synthea","value":"acffdfa8-1383-3929-8c99-e73969491439"},"display":"BRIGHAM AND WOMEN'S FAULKNER HOSPITAL, INC."}}
{"resourceType":"Location","id":"2ec6fc39-797f-35c5-83da-01ae99a1b8c6","meta":{"profile":["http://hl7.org/fhir/us/core/StructureDefinition/us-core-location"]},"identifier":[{"system":"https://github.com/synthetichealth/synthea","value":"2ec6fc39-797f-35c5-83da-01ae99a1b8c6"}],"status":"active","name":"KATZMAN FAMILY CENTER FOR LIVING","telecom":[{"system":"phone","value":"6178846766"}],"address":{"line":["17 LAFAYETTE AVENUE"],"city":"CHELSEA","state":"MA","postalCode":"021502010","country":"US"},"position":{"longitude":-71.03050082480353,"latitude":42.40019115},"managingOrganization":{"identifier":{"system":"https://github.com/synthetichealth/synthea","value":"fe30f2b4-9bc8-346e-afba-4455d1766545"},"display":"KATZMAN FAMILY CENTER FOR LIVING"}}
{"resourceType":"Location","id":"d0864ec1-05e9-359c-a607-7ff683f738b9","meta":{"profile":["http://hl7.org/fhir/us/core/StructureDefinition/us-core-location"]},"identifier":[{"system":"https://github.com/synthetichealth/synthea","value":"d0864ec1-05e9-359c-a607-7ff683f738b9"}],"status":"active","name":"LEMUEL SHATTUCK HOSPITAL","telecom":[{"system":"phone","value":"6175228110"}],"address":{"line":["170 MORTON STREET"],"city":"JAMAICA PLAIN","state":"MA","postalCode":"021303735","country":"US"},"position":{"longitude":-71.10124351911541,"latitude":42.299067750000006},"managingOrganization":{"identifier":{"system":"https://github.com/synthetichealth/synthea","value":"6cf8a214-8d57-3267-85e5-7719e15cd63e"},"display":"LEMUEL SHATTUCK HOSPITAL"}}
{"resourceType":"Location","id":"a70261c0-cd16-3635-9d96-8492e2a0be87","meta":{"profile":["http://hl7.org/fhir/us/core/StructureDefinition/us-core-location"]},"identifier":[{"system":"https://github.com/synthetichealth/synthea","value":"a70261c0-cd16-3635-9d96-8492e2a0be87"}],"status":"active","name":"LEONARD FLORENCE CENTER FOR LIVING","telecom":[{"system":"phone","value":"6178870001"}],"address":{"line":["165 CAPTAIN'S ROW"],"city":"CHELSEA","state":"MA","postalCode":"021504019","country":"US"},"position":{"longitude":-71.0328284,"latitude":42.3917638},"managingOrganization":{"identifier":{"system":"https://github.com/synthetichealth/synthea","value":"13161e5b-02d2-3d19-8b48-26ef0becfc83"},"display":"LEONARD FLORENCE CENTER FOR LIVING"}}
{"resourceType":"Location","id":"5d5ac7a4-7c31-3868-a7c1-d16c34243530","meta":{"profile":["http://hl7.org/fhir/us/core/StructureDefinition/us-core-location"]},"identifier":[{"system":"https://github.com/synthetichealth/synthea","value":"5d5ac7a4-7c31-3868-a7c1-d16c34243530"}],"status":"active","name":"BOSTON MEDICAL CENTER CORPORATION-","telecom":[{"system":"phone","value":"6176388000"}],"address":{"line":["88 EAST NEWTON STREET"],"city":"WINTHROP","state":"MA","postalCode":"021522715","country":"US"},"position":{"longitude":-70.982827,"latitude":42.3750976},"managingOrganization":{"identifier":{"system":"https://github.com/synthetichealth/synthea","value":"0fedae9f-701f-3317-9b2f-69aea2202cdc"},"display":"BOSTON MEDICAL CENTER CORPORATION-"}}
{"resourceType":"Location","id":"7985b913-07b9-3efe-9c88-1d1b80065745","meta":{"profile":["http://hl7.org/fhir/us/core/StructureDefinition/us-core-location"]},"identifier":[{"system":"https://github.com/synthetichealth/synthea","value":"7985b913-07b9-3efe-9c88-1d1b80065745"}],"status":"active","name":"MANET COMMUNITY HEALTH CENTER, INC.","telecom":[{"system":"phone","value":"6174718683"}],"address":{"line":["1193 SEA ST"],"city":"QUINCY","state":"MA","postalCode":"021693544","country":"US"},"position":{"longitude":-70.95264075087945,"latitude":42.26883395},"managingOrganization":{"identifier":{"system":"https://github.com/synthetichealth/synthea","value":"f480acd0-7ef1-350d-aae6-d8e7d53ace57"},"display":"MANET COMMUNITY HEALTH CENTER, INC."}}
{"resourceType":"Location","id":"95e51e30-5c2a-3ea0-bc02-fd7eaa8b8cf5","meta":{"profile":["http://hl7.org/fhir/us/core/StructureDefinition/us-core-location"]},"identifier":[{"system":"https://github.com/synthetichealth/synthea","value":"95e51e30-5c2a-3ea0-bc02-fd7eaa8b8cf5"}],"status":"active","name":"BETH ISRAEL DEACONESS HOSPITAL-NEEDHAM, INC.","telecom":[{"system":"phone","value":"7814533000"}],"address":{"line":["148 CHESTNUT ST"],"city":"NEEDHAM","state":"MA","postalCode":"024943238","country":"US"},"position":{"longitude":-71.23665362814043,"latitude":42.27728075},"managingOrganization":{"identifier":{"system":"https://github.com/synthetichealth/synthea","value":"3b021cb6-4745-3d9d-8436-230055f770bd"},"display":"BETH ISRAEL DEACONESS HOSPITAL-NEEDHAM, INC."}}
{"resourceType":"Location","id":"16d3c0e9-f678-3015-b1c6-ba51638b31c7","meta":{"profile":["http://hl7.org/fhir/us/core/StructureDefinition/us-core-location"]},"identifier":[{"system":"https://github.com/synthetichealth/synthea","value":"16d3c0e9-f678-3015-b1c6-ba51638b31c7"}],"status":"active","name":"MATTAPAN COMMUNITY HEALTH CENTER, INC.","telecom":[{"system":"phone","value":"6172960061"}],"address":{"line":["1575 BLUE HILL AVE"],"city":"BOSTON","state":"MA","postalCode":"021262122","country":"US"},"position":{"longitude":-71.0940406,"latitude":42.2698727},"managingOrganization":{"identifier":{"system":"https://github.com/synthetichealth/synthea","value":"e854f053-5621-31fa-afa1-29040b0d7466"},"display":"MATTAPAN COMMUNITY HEALTH CENTER, INC."}}
{"resourceType":"Location","id":"33e0e6fb-1cc8-34b6-a9ad-a2f6d0064076","meta":{"profile":["http://hl7.org/fhir/us/core/StructureDefinition/us-core-location"]},"identifier":[{"system":"https://github.com/synthetichealth/synthea","value":"33e0e6fb-1cc8-34b6-a9ad-a2f6d0064076"}],"status":"active","name":"CROWN HOME HEALTHCARE MA, INC","telecom":[{"system":"phone","value":"7812153815"}],"address":{"line":["320 CENTRAL STREET, UNIT A2"],"city":"SAUGUS","state":"MA","postalCode":"019062372","country":"US"},"position":{"longitude":-71.0093761,"latitude":42.4632069},"managingOrganization":{"identifier":{"system":"https://github.com/synthetichealth/synthea","value":"fbd4ccdf-2fdb-3652-9bbe-1ccff886bd34"},"display":"CROWN HOME HEALTHCARE MA, INC"}}
{"resourceType":"Location","id":"79cf375e-de7e-3476-ad77-9dc5cb556044","meta":{"profile":["http://hl7.org/fhir/us/core/StructureDefinition/us-core-location"]},"identifier":[{"system":"https://github.com/synthetichealth/synthea","value":"79cf375e-de7e-3476-ad77-9dc5cb556044"}],"status":"active","name":"LYNN COMMUNITY HEALTH","telecom":[{"system":"phone","value":"7815962502"}],"address":{"line":["269 UNION STREET"],"city":"LYNN","state":"MA","postalCode":"019011201","country":"US"},"position":{"longitude":-70.94362420273097,"latitude":42.4652772},"managingOrganization":{"identifier":{"system":"https://github.com/synthetichealth/synthea","value":"dd3307db-114c-3f11-be44-a9eef6bb3fc5"},"display":"LYNN COMMUNITY HEALTH"}}
{"resourceType":"Location","id":"9306d043-e330-3e48-a16a-8da7695da3ee","meta":{"profile":["http://hl7.org/fhir/us/core/StructureDefinition/us-core-location"]},"identifier":[{"system":"https://github.com/synthetichealth/synthea","value":"9306d043-e330-3e48-a16a-8da7695da3ee"}],"status":"active","name":"VERO HEALTH XIV LLC","telecom":[{"system":"phone","value":"6179241130"}],"address":{"line":["59 COOLIDGE HILL RD"],"city":"WATERTOWN","state":"MA","postalCode":"024722816","country":"US"},"position":{"longitude":-71.1528107445055,"latitude":42.36721805},"managingOrganization":{"identifier":{"system":"https://github.com/synthetichealth/synthea","value":"9285ca02-6788-3ae1-b1b7-3b313abbfea1"},"display":"VERO HEALTH XIV LLC"}}
{"resourceType":"Location","id":"e52adc83-5fe5-3bac-9ce8-13429b1dc98a","meta":{"profile":["http://hl7.org/fhir/us/core/StructureDefinition/us-core-location"]},"identifier":[{"system":"https://github.com/synthetichealth/synthea","value":"e52adc83-5fe5-3bac-9ce8-13429b1dc98a"}],"status":"active","name":"HARBOR HEALTH SERVICES INC","telecom":[{"system":"phone","value":"6172823200"}],"address":{"line":["398 NEPONSET AVE"],"city":"DORCHESTER","state":"MA","postalCode":"021223134","country":"US"},"position":{"longitude":-71.04402811508834,"latitude":42.286764399999996},"managingOrganization":{"identifier":{"system":"https://github.com/synthetichealth/synthea","value":"39c15c0f-5c49-311e-99d2-1fb99d80e06e"},"display":"HARBOR HEALTH SERVICES INC"}}
{"resourceType":"Location","id":"77d0e56e-29b2-3f76-8bba-6c6636d5922d","meta":{"profile":["http://hl7.org/fhir/us/core/StructureDefinition/us-core-location"]},"identifier":[{"system":"https://github.com/synthetichealth/synthea","value":"77d0e56e-29b2-3f76-8bba-6c6636d5922d"}],"status":"active","name":"CARECENTRAL URGENT CARE MEDICAL GROUP PC","telecom":[{"system":"phone","value":"7813412800"}],"address":{"line":["286 WASHINGTON ST"],"city":"STOUGHTON","state":"MA","postalCode":"020721763","country":"US"},"position":{"longitude":-71.1022598,"latitude":42.1384306},"managingOrganization":{"identifier":{"system":"https://github.com/synthetichealth/synthea","value":"bccd7d67-203c-3d93-b6b0-bff5a146cd1d"},"display":"CARECENTRAL URGENT CARE MEDICAL GROUP PC"}}
{"resourceType":"Location","id":"9a277a7c-edef-39ed-a619-58dc818c416d","meta":{"profile":["http://hl7.org/fhir/us/core/StructureDefinition/us-core-location"]},"identifier":[{"system":"https://github.com/synthetichealth/synthea","value":"9a277a7c-edef-39ed-a619-58dc818c416d"}],"status":"active","name":"CAMBRIDGE REHABILITATION & NURSING CENTER","telecom":[{"system":"phone","value":"6178644267"}],"address":{"line":["8 DANA STREET"],"city":"CAMBRIDGE","state":"MA","postalCode":"021385402","country":"US"},"position":{"longitude":-71.11011030010101,"latitude":42.3694992},"managingOrganization":{"identifier":{"system":"https://github.com/synthetichealth/synthea","value":"db28cc9a-fdfb-35a6-aef7-ab9b933ef244"},"display":"CAMBRIDGE REHABILITATION & NURSING CENTER"}}
{"resourceType":"Location","id":"903e1531-4e7b-3e59-9819-f42f3f75236a","meta":{"profile":["http://hl7.org/fhir/us/core/StructureDefinition/us-core-location"]},"identifier":[{"system":"https://github.com/synthetichealth/synthea","value":"903e1531-4e7b-3e59-9819-f42f3f75236a"}],"status":"active","name":"FRANCISCAN HOSPITAL FOR CHILDREN INC","telecom":[{"system":"phone","value":"6172543800"}],"address":{"line":["30 WARREN ST"],"city":"BOSTON","state":"MA","postalCode":"021353602","country":"US"},"position":{"longitude":-71.14393324457691,"latitude":42.3501483},"managingOrganization":{"identifier":{"system":"https://github.com/synthetichealth/synthea","value":"c7542447-e06e-32cb-b6db-243c23a0dbc2"},"display":"FRANCISCAN HOSPITAL FOR CHILDREN INC"}}
{"resourceType":"Location","id":"8098b18a-baec-3274-9a7a-5377caf748e4","meta":{"profile":["http://hl7.org/fhir/us/core/StructureDefinition/us-core-location"]},"identifier":[{"system":"https://github.com/synthetichealth/synthea","value":"8098b18a-baec-3274-9a7a-5377caf748e4"}],"status":"active","name":"BOSTON MEDICAL CENTER CORPORATION-","telecom":[{"system":"phone","value":"6173234440"}],"address":{"line":["4199 WASHINGTON ST"],"city":"ROSLINDALE","state":"MA","postalCode":"021311733","country":"US"},"position":{"longitude":-71.1277526,"latitude":42.2871447},"managingOrganization":{"identifier":{"system":"https://github.com/synthetichealth/synthea","value":"50c47685-8125-3c50-8311-8bd7ba9e9108"},"display":"BOSTON MEDICAL CENTER CORPORATION-"}}
{"resourceType":"Location","id":"4f61b996-d531-33b1-a639-5802704c7751","meta":{"profile":["http://hl7.org/fhir/us/core/StructureDefinition/us-core-location"]},"identifier":[{"system":"https://github.com/synthetichealth/synthea","value":"4f61b996-d531-33b1-a639-5802704c7751"}],"status":"active","name":"BOSTON HEALTH CARE FOR THE HOMELESS PROGRAM INC","telecom":[{"system":"phone","value":"6177262707"}],"address":{"line":["55 FRUIT ST"],"city":"BOSTON","state":"MA","postalCode":"021142696","country":"US"},"position":{"longitude":-71.06875296664998,"latitude":42.36286045},"managingOrganization":{"identifier":{"system":"https://github.com/synthetichealth/synthea","value":"72f50aa0-d8c9-34dc-ac58-c428323f3bcd"},"display":"BOSTON HEALTH CARE FOR THE HOMELESS PROGRAM INC"}}
{"resourceType":"Location","id":"0b9636e4-045c-3489-9a61-53e087cda329","meta":{"profile":["http://hl7.org/fhir/us/core/StructureDefinition/us-core-location"]},"identifier":[{"system":"https://github.com/synthetichealth/synthea","value":"0b9636e4-045c-3489-9a61-53e087cda329"}],"status":"active","name":"BOSTON HOME, INC (THE)","telecom":[{"system":"phone","value":"6178253905"}],"address":{"line":["2049 DORCHESTER AVENUE"],"city":"BOSTON","state":"MA","postalCode":"021244742","country":"US"},"position":{"longitude":-71.060511,"latitude":42.3554334},"managingOrganization":{"identifier":{"system":"https://github.com/synthetichealth/synthea","value":"be509ccb-bfb7-3b87-8945-8426b689ef9d"},"display":"BOSTON HOME, INC (THE)"}}
{"resourceType":"Location","id":"551bb30f-ff5b-3c6e-98ed-938ef9775cdd","meta":{"profile":["http://hl7.org/fhir/us/core/StructureDefinition/us-core-location"]},"identifier":[{"system":"https://github.com/synthetichealth/synthea","value":"551bb30f-ff5b-3c6e-98ed-938ef9775cdd"}],"status":"active","name":"CARBON HEALTH PRIMARY CARE OF FLORIDA PA","telecom":[{"system":"phone","value":"6178652749"}],"address":{"line":["80 SUMMER ST STE 1"],"city":"BOSTON","state":"MA","postalCode":"021101218","country":"US"},"position":{"longitude":-71.05809515865283,"latitude":42.35403315},"managingOrganization":{"identifier":{"system":"https://github.com/synthetichealth/synthea","value":"c0719377-d40a-3e9c-9f7c-af47c93b3f40"},"display":"CARBON HEALTH PRIMARY CARE OF FLORIDA PA"}}
{"resourceType":"Location","id":"ca834f0c-300a-31b7-9a0a-f599d5c71d87","meta":{"profile":["http://hl7.org/fhir/us/core/StructureDefinition/us-core-location"]},"identifier":[{"system":"https://github.com/synthetichealth/synthea","value":"ca834f0c-300a-31b7-9a0a-f599d5c71d87"}],"status":"active","name":"UPHAMS CORNER HEALTH COMMITTEE INC","telecom":[{"system":"phone","value":"6172878000"}],"address":{"line":["500 COLUMBIA RD"],"city":"DORCHESTER","state":"MA","postalCode":"021252322","country":"US"},"position":{"longitude":-71.067633,"latitude":42.3147979},"managingOrganization":{"identifier":{"system":"https://github.com/synthetichealth/synthea","value":"6873525f-1680-3ceb-b536-270d44b46e2e"},"display":"UPHAMS CORNER HEALTH COMMITTEE INC"}}
{"resourceType":"Location","id":"a16ad7f4-3475-376f-aeff-0b47d59d4711","meta":{"profile":["http://hl7.org/fhir/us/core/StructureDefinition/us-core-location"]},"identifier":[{"system":"https://github.com/synthetichealth/synthea","value":"a16ad7f4-3475-376f-aeff-0b47d59d4711"}],"status":"active","name":"BETH ISRAEL DEACONESS HOSPITAL MILTON INC","telecom":[{"system":"phone","value":"6173131214"}],"address":{"line":["199 REEDSDALE RD"],"city":"MILTON","state":"MA","postalCode":"021863926","country":"US"},"position":{"longitude":-71.0768393856917,"latitude":42.251368299999996},"managingOrganization":{"identifier":{"system":"https://github.com/synthetichealth/synthea","value":"f8918a95-31e8-3ac4-8d12-29ca6080ebda"},"display":"BETH ISRAEL DEACONESS HOSPITAL MILTON INC"}}
{"resourceType":"Location","id":"538918a6-b3ea-3f92-bcaa-6cbf6a9f23b5","meta":{"profile":["http://hl7.org/fhir/us/core/StructureDefinition/us-core-location"]},"identifier":[{"system":"https://github.com/synthetichealth/synthea","value":"538918a6-b3ea-3f92-bcaa-6cbf6a9f23b5"}],"status":"active","name":"120 MAIN STREET OPERATOR LLC","telecom":[{"system":"phone","value":"7813245600"}],"address":{"line":["120 MAIN ST"],"city":"MALDEN","state":"MA","postalCode":"021486904","country":"US"},"position":{"longitude":-71.06618960434116,"latitude":42.41918695},"managingOrganization":{"identifier":{"system":"https://github.com/synthetichealth/synthea","value":"9cec3b3c-fe3f-344e-b9c3-e414dafcd19f"},"display":"120 MAIN STREET OPERATOR LLC"}}
{"resourceType":"Location","id":"94a36583-c094-3312-b728-d4a42ec39538","meta":{"profile":["http://hl7.org/fhir/us/core/StructureDefinition/us-core-location"]},"identifier":[{"system":"https://github.com/synthetichealth/synthea","value":"94a36583-c094-3312-b728-d4a42ec39538"}],"status":"active","name":"MELROSE INTERNAL MEDICINE ASSOC PC","telecom":[{"system":"phone","value":"7819793800"}],"address":{"line":["50 ROWE ST"],"city":"MELROSE","state":"MA","postalCode":"021763201","country":"US"},"position":{"longitude":-71.06078096379728,"latitude":42.4592093},"managingOrganization":{"identifier":{"system":"https://github.com/synthetichealth/synthea","value":"8d5880eb-1dd8-31ea-b7c5-21709f3bb341"},"display":"MELROSE INTERNAL MEDICINE ASSOC PC"}}
{"resourceType":"Location","id":"a5d999ec-60f6-362d-9b09-01277bb7d098","meta":{"profile":["http://hl7.org/fhir/us/core/StructureDefinition/us-core-location"]},"identifier":[{"system":"https://github.com/synthetichealth/synthea","value":"a5d999ec-60f6-362d-9b09-01277bb7d098"}],"status":"active","name":"BRIGHTON HOUSE REHABILITATION & NURSING CENTER","telecom":[{"system":"phone","value":"6177310515"}],"address":{"line":["170 COREY ROAD"],"city":"BRIGHTON","state":"MA","postalCode":"021358244","country":"US"},"position":{"longitude":-71.14003855124017,"latitude":42.3433093},"managingOrganization":{"identifier":{"system":"https://github.com/synthetichealth/synthea","value":"dac75bc1-cbfa-306b-9a0a-88d5edf3638d"},"display":"BRIGHTON HOUSE REHABILITATION & NURSING CENTER"}}
{"resourceType":"Location","id":"4f6b9fa9-8caf-340c-bb07-e9693961a416","meta":{"profile":["http://hl7.org/fhir/us/core/StructureDefinition/us-core-location"]},"identifier":[{"system":"https://github.com/synthetichealth/synthea","value":"4f6b9fa9-8caf-340c-bb07-e9693961a416"}],"status":"active","name":"TOTAL HEALTH CARE, INC.","telecom":[{"system":"phone","value":"6176980715"}],"address":{"line":["2 REEDSDALE RD"],"city":"MILTON","state":"MA","postalCode":"021863800","country":"US"},"position":{"longitude":-71.08070895097364,"latitude":42.258080449999994},"managingOrganization":{"identifier":{"system":"https://github.com/synthetichealth/synthea","value":"744bdf85-6223-367c-b1ab-e8c8e0a5eb28"},"display":"TOTAL HEALTH CARE, INC."}}
{"resourceType":"Location","id":"9185a49f-22c1-3487-a9fb-b04f00a15861","meta":{"profile":["http://hl7.org/fhir/us/core/StructureDefinition/us-core-location"]},"identifier":[{"system":"https://github.com/synthetichealth/synthea","value":"9185a49f-22c1-3487-a9fb-b04f00a15861"}],"status":"active","name":"NORTH END COMMUNITY HEALTH COMMITTEE INC","telecom":[{"system":"phone","value":"6176438000"}],"address":{"line":["332 HANOVER STREET"],"city":"BOSTON","state":"MA","postalCode":"021131901","country":"US"},"position":{"longitude":-71.0536619,"latitude":42.3647421},"managingOrganization":{"identifier":{"system":"https://github.com/synthetichealth/synthea","value":"9f2f60a6-87a4-3f45-b753-b63b5b7e9993"},"display":"NORTH END COMMUNITY HEALTH COMMITTEE INC"}}
{"resourceType":"Location","id":"879680f0-7d30-38dc-8476-145aa229a0c4","meta":{"profile":["http://hl7.org/fhir/us/core/StructureDefinition/us-core-location"]},"identifier":[{"system":"https://github.com/synthetichealth/synthea","value":"879680f0-7d30-38dc-8476-145aa229a0c4"}],"status":"active","name":"BRIGHAM AND WOMEN'S FAULKNER HOSPITAL, INC.","telecom":[{"system":"phone","value":"6179837470"}],"address":{"line":["1153 CENTRE ST"],"city":"JAMAICA PLAIN","state":"MA","postalCode":"021303446","country":"US"},"position":{"longitude":-71.12855793387442,"latitude":42.3017598},"managingOrganization":{"identifier":{"system":"https://github.com/synthetichealth/synthea","value":"f312977e-8f41-3816-84cc-e5b12ba36955"},"display":"BRIGHAM AND WOMEN'S FAULKNER HOSPITAL, INC."}}
{"resourceType":"Location","id":"b6987bc1-d3c6-32b1-a9a1-50487a8c24bd","meta":{"profile":["http://hl7.org/fhir/us/core/StructureDefinition/us-core-location"]},"identifier":[{"system":"https://github.com/synthetichealth/synthea","value":"b6987bc1-d3c6-32b1-a9a1-50487a8c24bd"}],"status":"active","name":"VISITING NURSE ASSN OF EASTERN MASS","telecom":[{"system":"phone","value":"6177769800"}],"address":{"line":["259 LOWELL ST"],"city":"SOMERVILLE","state":"MA","postalCode":"021442666","country":"US"},"position":{"longitude":-71.1061564,"latitude":42.3922293},"managingOrganization":{"identifier":{"system":"https://github.com/synthetichealth/synthea","value":"ef95a6b4-cf95-32c2-b6e5-0488faaa3ac4"},"display":"VISITING NURSE ASSN OF EASTERN MASS"}}
{"resourceType":"Location","id":"c268163c-1a0b-3f49-bb14-eccd493ce6e5","meta":{"profile":["http://hl7.org/fhir/us/core/StructureDefinition/us-core-location"]},"identifier":[{"system":"https://github.com/synthetichealth/synthea","value":"c268163c-1a0b-3f49-bb14-eccd493ce6e5"}],"status":"active","name":"HARBOR HEALTH SERVICES INC","telecom":[{"system":"phone","value":"6172881140"}],"address":{"line":["250 MOUNT VERNON ST"],"city":"DORCHESTER","state":"MA","postalCode":"021253120","country":"US"},"position":{"longitude":-71.04610844302991,"latitude":42.3194571},"managingOrganization":{"identifier":{"system":"https://github.com/synthetichealth/synthea","value":"2b97893e-dc50-378b-a266-f089b8450329"},"display":"HARBOR HEALTH SERVICES INC"}}
{"resourceType":"Location","id":"044ef112-a176-3686-8385-f2af139c51bd","meta":{"profile":["http://hl7.org/fhir/us/core/StructureDefinition/us-core-location"]},"identifier":[{"system":"https://github.com/synthetichealth/synthea","value":"044ef112-a176-3686-8385-f2af139c51bd"}],"status":"active","name":"DAVIS SQUARE FAMILY PRACTICE","telecom":[{"system":"phone","value":"6176669577"}],"address":{"line":["260 ELM ST"],"city":"SOMERVILLE","state":"MA","postalCode":"021442951","country":"US"},"position":{"longitude":-71.1227391,"latitude":42.3955992},"managingOrganization":{"identifier":{"system":"https://github.com/synthetichealth/synthea","value":"3d5fbf38-c781-3e04-8c7e-5a402611b7d4"},"display":"DAVIS SQUARE FAMILY PRACTICE"}}
{"resourceType":"Location","id":"b9e47363-c87c-32cc-8455-4696d47c8e01","meta":{"profile":["http://hl7.org/fhir/us/core/StructureDefinition/us-core-location"]},"identifier":[{"system":"https://github.com/synthetichealth/synthea","value":"b9e47363-c87c-32cc-8455-4696d47c8e01"}],"status":"active","name":"MEDFORD REHABILITATION AND NURSING CENTER","telecom":[{"system":"phone","value":"7813964400"}],"address":{"line":["300 WINTHROP STREET"],"city":"MEDFORD","state":"MA","postalCode":"021552311","country":"US"},"position":{"longitude":-71.11834,"latitude":42.421527},"managingOrganization":{"identifier":{"system":"https://github.com/synthetichealth/synthea","value":"94ac48ba-e215-3ab9-ba88-a0b926d29cef"},"display":"MEDFORD REHABILITATION AND NURSING CENTER"}}
{"resourceType":"Location","id":"7ea6318e-9190-3b66-b851-1ac25c359fe6","meta":{"profile":["http://hl7.org/fhir/us/core/StructureDefinition/us-core-location"]},"identifier":[{"system":"https://github.com/synthetichealth/synthea","value":"7ea6318e-9190-3b66-b851-1ac25c359fe6"}],"status":"active","name":"BEAR MT MATTAPAN LLC","telecom":[{"system":"phone","value":"6172965585"}],"address":{"line":["405 RIVER ST"],"city":"MATTAPAN","state":"MA","postalCode":"021262210","country":"US"},"position":{"longitude":-71.09061872585616,"latitude":42.2699017},"managingOrganization":{"identifier":{"system":"https://github.com/synthetichealth/synthea","value":"2c2e6afc-9578-3ba5-bb12-eed97d3a823b"},"display":"BEAR MT MATTAPAN LLC"}}
{"resourceType":"Location","id":"cb8fd45a-2e3a-34f7-9552-dddb7c246cef","meta":{"profile":["http://hl7.org/fhir/us/core/StructureDefinition/us-core-location"]},"identifier":[{"system":"https://github.com/synthetichealth/synthea","value":"cb8fd45a-2e3a-34f7-9552-dddb7c246cef"}],"status":"active","name":"RECUPERATIVE SERVICES UNIT-HEBREW REHAB CENTER","telecom":[{"system":"phone","value":"6173258000"}],"address":{"line":["1200 CENTRE STREET"],"city":"ROSLINDALE","state":"MA","postalCode":"021311011","country":"US"},"position":{"longitude":-71.130463,"latitude":42.29768},"managingOrganization":{"identifier":{"system":"https://github.com/synthetichealth/synthea","value":"a2047ff6-62f2-34d7-beb9-7e164d989c75"},"display":"RECUPERATIVE SERVICES UNIT-HEBREW REHAB CENTER"}}
{"resourceType":"Location","id":"adb59f43-8edb-38cf-b801-d02261e4de05","meta":{"profile":["http://hl7.org/fhir/us/core/StructureDefinition/us-core-location"]},"identifier":[{"system":"https://github.com/synthetichealth/synthea","value":"adb59f43-8edb-38cf-b801-d02261e4de05"}],"status":"active","name":"PRIMARY CARE NORTH PC","telecom":[{"system":"phone","value":"7815959581"}],"address":{"line":["225 BOSTON ST"],"city":"LYNN","state":"MA","postalCode":"019043124","country":"US"},"position":{"longitude":-70.96003668151566,"latitude":42.470497449999996},"managingOrganization":{"identifier":{"system":"https://github.com/synthetichealth/synthea","value":"936ceb96-2b12-371f-aa68-ee02a9c06f4c"},"display":"PRIMARY CARE NORTH PC"}}
{"resourceType":"Location","id":"0d9d3429-5e19-3080-bfcb-8aac919c3665","meta":{"profile":["http://hl7.org/fhir/us/core/StructureDefinition/us-core-location"]},"identifier":[{"system":"https://github.com/synthetichealth/synthea","value":"0d9d3429-5e19-3080-bfcb-8aac919c3665"}],"status":"active","name":"FENWAY COMMUNITY HEALTH CENTER, INC","telecom":[{"system":"phone","value":"6174578140"}],"address":{"line":["75 KNEELAND ST"],"city":"BOSTON","state":"MA","postalCode":"021111901","country":"US"},"position":{"longitude":-71.060605,"latitude":42.350222},"managingOrganization":{"identifier":{"system":"https://github.com/synthetichealth/synthea","value":"f3740f1e-3176-3f58-ba4a-f95d8f5b9263"},"display":"FENWAY COMMUNITY HEALTH CENTER, INC"}}
{"resourceType":"Location","id":"c5de81bc-8f47-357b-af0b-ca4321dcab24","meta":{"profile":["http://hl7.org/fhir/us/core/StructureDefinition/us-core-location"]},"identifier":[{"system":"https://github.com/synthetichealth/synthea","value":"c5de81bc-8f47-357b-af0b-ca4321dcab24"}],"status":"active","name":"HALLMARK HEALTH URGENT CARE PHYSICIANS LLC","telecom":[{"system":"phone","value":"7812801699"}],"address":{"line":["30 NEW CROSSING RD"],"city":"READING","state":"MA","postalCode":"018673270","country":"US"},"position":{"longitude":-71.0959083715027,"latitude":42.51809619399502},"managingOrganization":{"identifier":{"system":"https://github.com/synthetichealth/synthea","value":"3e97ce4f-3ad7-3cea-883f-e2bb4ca89d83"},"display":"HALLMARK HEALTH URGENT CARE PHYSICIANS LLC"}}
{"resourceType":"Location","id":"ab1e9a87-beb2-38c7-90a8-da5c3a9d084d","meta":{"profile":["http://hl7.org/fhir/us/core/StructureDefinition/us-core-location"]},"identifier":[{"system":"https://github.com/synthetichealth/synthea","value":"ab1e9a87-beb2-38c7-90a8-da5c3a9d084d"}],"status":"active","name":"MARISTHILL NURSING & REHABILITATION CENTER","telecom":[{"system":"phone","value":"7818930240"}],"address":{"line":["66 NEWTON STREET"],"city":"WALTHAM","state":"MA","postalCode":"024536058","country":"US"},"position":{"longitude":-71.22789736306842,"latitude":42.3746705},"managingOrganization":{"identifier":{"system":"https://github.com/synthetichealth/synthea","value":"c0132cf6-1703-3aad-89b4-cc2f2bbc123e"},"display":"MARISTHILL NURSING & REHABILITATION CENTER"}}
{"resourceType":"Location","id":"9cb921a3-508a-38a1-9a85-ee15fd2ff98a","meta":{"profile":["http://hl7.org/fhir/us/core/StructureDefinition/us-core-location"]},"identifier":[{"system":"https://github.com/synthetichealth/synthea","value":"9cb921a3-508a-38a1-9a85-ee15fd2ff98a"}],"status":"active","name":"Causeway OPC","telecom":[{"system":"phone","value":"800-865-3384"}],"address":{"line":["251 Causeway St."],"city":"Boston","state":"MA","postalCode":"02114","country":"US"},"position":{"longitude":-71.05931,"latitude":42.3665},"managingOrganization":{"identifier":{"system":"https://github.com/synthetichealth/synthea","value":"d5920b72-ac1a-3ec4-81ca-e3b75cb7aadd"},"display":"Causeway OPC"}}
{"resourceType":"Location","id":"52c7e1d7-3f57-3bde-b11c-2776688a5879","meta":{"profile":["http://hl7.org/fhir/us/core/StructureDefinition/us-core-location"]},"identifier":[{"system":"https://github.com/synthetichealth/synthea","value":"52c7e1d7-3f57-3bde-b11c-2776688a5879"}],"status":"active","name":"MANET COMMUNITY HEALTH CENTER, INC.","telecom":[{"system":"phone","value":"6173763030"}],"address":{"line":["110 W SQUANTUM ST"],"city":"QUINCY","state":"MA","postalCode":"021712122","country":"US"},"position":{"longitude":-71.03082765,"latitude":42.27259075},"managingOrganization":{"identifier":{"system":"https://github.com/synthetichealth/synthea","value":"5225cc87-6a30-303c-a882-5f001cee7f0e"},"display":"MANET COMMUNITY HEALTH CENTER, INC."}}
{"resourceType":"Location","id":"aa03cc01-b615-3d62-a192-eb08f8a5a773","meta":{"profile":["http://hl7.org/fhir/us/core/StructureDefinition/us-core-location"]},"identifier":[{"system":"https://github.com/synthetichealth/synthea","value":"aa03cc01-b615-3d62-a192-eb08f8a5a773"}],"status":"active","name":"VISITING NURSE AT HIGHLAND INC","telecom":[{"system":"phone","value":"6177764420"}],"address":{"line":["186 HIGHLAND AVE"],"city":"SOMERVILLE","state":"MA","postalCode":"021431507","country":"US"},"position":{"longitude":-71.10666839512322,"latitude":42.38845955},"managingOrganization":{"identifier":{"system":"https://github.com/synthetichealth/synthea","value":"6d6ef57e-b2ce-3a69-bacf-4305c51834b0"},"display":"VISITING NURSE AT HIGHLAND INC"}}
{"resourceType":"Location","id":"75a53ceb-dc3f-347d-8cfb-f2f5a42837d1","meta":{"profile":["http://hl7.org/fhir/us/core/StructureDefinition/us-core-location"]},"identifier":[{"system":"https://github.com/synthetichealth/synthea","value":"75a53ceb-dc3f-347d-8cfb-f2f5a42837d1"}],"status":"active","name":"SOUTH BOSTON COMMUNITY HEALTH CENTER INC","telecom":[{"system":"phone","value":"6172697500"}],"address":{"line":["409 W BROADWAY"],"city":"SOUTH BOSTON","state":"MA","postalCode":"021272245","country":"US"},"position":{"longitude":-71.047958,"latitude":42.336831},"managingOrganization":{"identifier":{"system":"https://github.com/synthetichealth/synthea","value":"79d49935-bcc0-36ca-920b-45365c367438"},"display":"SOUTH BOSTON COMMUNITY HEALTH CENTER INC"}}
{"resourceType":"Location","id":"dcb8b8ce-4ea5-30b0-8626-b3887ce64ab5","meta":{"profile":["http://hl7.org/fhir/us/core/StructureDefinition/us-core-location"]},"identifier":[{"system":"https://github.com/synthetichealth/synthea","value":"dcb8b8ce-4ea5-30b0-8626-b3887ce64ab5"}],"status":"active","name":"MARIAN MANOR","telecom":[{"system":"phone","value":"6172683333"}],"address":{"line":["130 DORCHESTER STREET"],"city":"SOUTH BOSTON","state":"MA","postalCode":"021272642","country":"US"},"position":{"longitude":-71.0494949,"latitude":42.3334312},"managingOrganization":{"identifier":{"system":"https://github.com/synthetichealth/synthea","value":"0f2c58ec-5323-3c0f-9bdf-af0df7eb2a2b"},"display":"MARIAN MANOR"}}
{"resourceType":"Location","id":"a45ad017-fcd1-3370-a5ce-e6c5143ed315","meta":{"profile":["http://hl7.org/fhir/us/core/StructureDefinition/us-core-location"]},"identifier":[{"system":"https://github.com/synthetichealth/synthea","value":"a45ad017-fcd1-3370-a5ce-e6c5143ed315"}],"status":"active","name":"DIMOCK COMMUNITY HEALTH CENTER, INC","telecom":[{"system":"phone","value":"6174428800"}],"address":{"line":["45 DIMOCK ST"],"city":"ROXBURY","state":"MA","postalCode":"021191029","country":"US"},"position":{"longitude":-71.09721114916246,"latitude":42.32030665},"managingOrganization":{"identifier":{"system":"https://github.com/synthetichealth/synthea","value":"b3312a2d-37e9-35a8-b50d-6c165c437baa"},"display":"DIMOCK COMMUNITY HEALTH CENTER, INC"}}
{"resourceType":"Location","id":"96dd9bad-11cd-3728-af63-0cc1fdc6c68d","meta":{"profile":["http://hl7.org/fhir/us/core/StructureDefinition/us-core-location"]},"identifier":[{"system":"https://github.com/synthetichealth/synthea","value":"96dd9bad-11cd-3728-af63-0cc1fdc6c68d"}],"status":"active","name":"CARNEY HOSPITAL","telecom":[{"system":"phone","value":"6175062000"}],"address":{"line":["2100 DORCHESTER AVENUE"],"city":"QUINCY","state":"MA","postalCode":"021691870","country":"US"},"position":{"longitude":-71.0037374,"latitude":42.2509914},"managingOrganization":{"identifier":{"system":"https://github.com/synthetichealth/synthea","value":"82c72223-f521-3a34-9b9b-4ff366365399"},"display":"CARNEY HOSPITAL"}}
{"resourceType":"Location","id":"1c32cd31-0a8b-3f8c-a368-b01af880a988","meta":{"profile":["http://hl7.org/fhir/us/core/StructureDefinition/us-core-location"]},"identifier":[{"system":"https://github.com/synthetichealth/synthea","value":"1c32cd31-0a8b-3f8c-a368-b01af880a988"}],"status":"active","name":"BAYADA HOME HEALTH CARE, INC","telecom":[{"system":"phone","value":"6179692600"}],"address":{"line":["980 WASHINGTON STREET, SUITE 124"],"city":"DEDHAM","state":"MA","postalCode":"020266704","country":"US"},"position":{"longitude":-71.18501264023513,"latitude":42.228918},"managingOrganization":{"identifier":{"system":"https://github.com/synthetichealth/synthea","value":"7c625dc4-2593-31eb-95fd-6a912832b8bb"},"display":"BAYADA HOME HEALTH CARE, INC"}}
{"resourceType":"Location","id":"947c0d4f-3fa0-345a-a4aa-f193ae424571","meta":{"profile":["http://hl7.org/fhir/us/core/StructureDefinition/us-core-location"]},"identifier":[{"system":"https://github.com/synthetichealth/synthea","value":"947c0d4f-3fa0-345a-a4aa-f193ae424571"}],"status":"active","name":"DEDHAM MEDICAL ASSOCIATES URGENT CARE CENTER LLC","telecom":[{"system":"phone","value":"7813291400"}],"address":{"line":["1177 PROVIDENCE HIGHWAY"],"city":"NORWOOD","state":"MA","postalCode":"020625019","country":"US"},"position":{"longitude":-71.1994976,"latitude":42.194543},"managingOrganization":{"identifier":{"system":"https://github.com/synthetichealth/synthea","value":"04b252db-4231-3cb5-963d-6f096fb4b97c"},"display":"DEDHAM MEDICAL ASSOCIATES URGENT CARE CENTER LLC"}}
{"resourceType":"Location","id":"7cddcaa1-318d-3c5b-b9e2-90bebf429a6f","meta":{"profile":["http://hl7.org/fhir/us/core/StructureDefinition/us-core-location"]},"identifier":[{"system":"https://github.com/synthetichealth/synthea","value":"7cddcaa1-318d-3c5b-b9e2-90bebf429a6f"}],"status":"active","name":"WHITTIER STREET NEIGHBORHOOD HEALTH CENTER","telecom":[{"system":"phone","value":"6174271000"}],"address":{"line":["1290 TREMONT ST"],"city":"ROXBURY","state":"MA","postalCode":"021203432","country":"US"},"position":{"longitude":-71.09194864251029,"latitude":42.3327398},"managingOrganization":{"identifier":{"system":"https://github.com/synthetichealth/synthea","value":"21989e2e-249c-3b79-acf0-240211e16b4b"},"display":"WHITTIER STREET NEIGHBORHOOD HEALTH CENTER"}}
{"resourceType":"Location","id":"2f19a3a8-93e7-3c4a-b9c1-78f9484c1525","meta":{"profile":["http://hl7.org/fhir/us/core/StructureDefinition/us-core-location"]},"identifier":[{"system":"https://github.com/synthetichealth/synthea","value":"2f19a3a8-93e7-3c4a-b9c1-78f9484c1525"}],"status":"active","name":"STONEHEDGE HEALTH CARE CENTER","telecom":[{"system":"phone","value":"6173276325"}],"address":{"line":["5 REDLANDS ROAD"],"city":"WEST ROXBURY","state":"MA","postalCode":"021321506","country":"US"},"position":{"longitude":-71.15108161583282,"latitude":42.2879347},"managingOrganization":{"identifier":{"system":"https://github.com/synthetichealth/synthea","value":"07ae483b-b351-3add-8b05-afba832b88ea"},"display":"STONEHEDGE HEALTH CARE CENTER"}}
{"resourceType":"Location","id":"3ef85575-19ac-3809-ba7c-d8131d7e0f8a","meta":{"profile":["http://hl7.org/fhir/us/core/StructureDefinition/us-core-location"]},"identifier":[{"system":"https://github.com/synthetichealth/synthea","value":"3ef85575-19ac-3809-ba7c-d8131d7e0f8a"}],"status":"active","name":"DR SOLOMON CARTER FULLER MENTAL HEALTH CENTER","telecom":[{"system":"phone","value":"6176268860"}],"address":{"line":["85 E NEWTON ST"],"city":"BOSTON","state":"MA","postalCode":"021183553","country":"US"},"position":{"longitude":-71.07085295687423,"latitude":42.336277100000004},"managingOrganization":{"identifier":{"system":"https://github.com/synthetichealth/synthea","value":"41e2a44c-477c-3511-96f9-12c476aa3b6a"},"display":"DR SOLOMON CARTER FULLER MENTAL HEALTH CENTER"}}
{"resourceType":"Location","id":"352b3ef6-08a9-32df-9b80-9d9c782c095e","meta":{"profile":["http://hl7.org/fhir/us/core/StructureDefinition/us-core-location"]},"identifier":[{"system":"https://github.com/synthetichealth/synthea","value":"352b3ef6-08a9-32df-9b80-9d9c782c095e"}],"status":"active","name":"Lynn Community Based Outpatient Clinic (CBOC)","telecom":[{"system":"phone","value":"800-838-6331"}],"address":{"line":["225 Boston Road, Suite 107"],"city":"Lynn","state":"MA","postalCode":"01904","country":"US"},"position":{"longitude":-70.95994,"latitude":42.470093},"managingOrganization":{"identifier":{"system":"https://github.com/synthetichealth/synthea","value":"79a06fd6-9f2b-35e3-9b11-0bc5ff89e17c"},"display":"Lynn Community Based Outpatient Clinic (CBOC)"}}
{"resourceType":"Location","id":"4744d6d9-56f2-35b6-9b13-953ec6034a8c","meta":{"profile":["http://hl7.org/fhir/us/core/StructureDefinition/us-core-location"]},"identifier":[{"system":"https://github.com/synthetichealth/synthea","value":"4744d6d9-56f2-35b6-9b13-953ec6034a8c"}],"status":"active","name":"LUTHERAN HOME OF JAMAICA PLAIN INC","telecom":[{"system":"phone","value":"6175221550"}],"address":{"line":["174 FOREST HILLS ST"],"city":"BOSTON","state":"MA","postalCode":"021303353","country":"US"},"position":{"longitude":-71.10237442688054,"latitude":42.306401050000005},"managingOrganization":{"identifier":{"system":"https://github.com/synthetichealth/synthea","value":"69195f53-626c-3031-b4de-d0b206f75d8c"},"display":"LUTHERAN HOME OF JAMAICA PLAIN INC"}}
{"resourceType":"Location","id":"912f1c2d-7a47-39bd-9d0f-899e99282619","meta":{"profile":["http://hl7.org/fhir/us/core/StructureDefinition/us-core-location"]},"identifier":[{"system":"https://github.com/synthetichealth/synthea","value":"912f1c2d-7a47-39bd-9d0f-899e99282619"}],"status":"active","name":"CHESTNUT WOODS REHABILITATION AND HEALTHCARE CTR","telecom":[{"system":"phone","value":"7812338123"}],"address":{"line":["73 CHESTNUT STREET"],"city":"SAUGUS","state":"MA","postalCode":"019061605","country":"US"},"position":{"longitude":-70.9918055,"latitude":42.4573919},"managingOrganization":{"identifier":{"system":"https://github.com/synthetichealth/synthea","value":"c1986c0c-f756-3596-8f90-08adacf220fe"},"display":"CHESTNUT WOODS REHABILITATION AND HEALTHCARE CTR"}}
{"resourceType":"Location","id":"e1422937-ff27-34bf-81fe-7dc3fa012770","meta":{"profile":["http://hl7.org/fhir/us/core/StructureDefinition/us-core-location"]},"identifier":[{"system":"https://github.com/synthetichealth/synthea","value":"e1422937-ff27-34bf-81fe-7dc3fa012770"}],"status":"active","name":"TUFTS MEDICAL CENTER, INC","telecom":[{"system":"phone","value":"6176365442"}],"address":{"line":["750 WASHINGTON ST"],"city":"BOSTON","state":"MA","postalCode":"021111552","country":"US"},"position":{"longitude":-71.0631836,"latitude":42.3499038},"managingOrganization":{"identifier":{"system":"https://github.com/synthetichealth/synthea","value":"0d1570ab-371c-3898-9397-95905d8c5166"},"display":"TUFTS MEDICAL CENTER, INC"}}
{"resourceType":"Location","id":"6e47dfc0-4d13-3e68-82f1-44d75375b089","meta":{"profile":["http://hl7.org/fhir/us/core/StructureDefinition/us-core-location"]},"identifier":[{"system":"https://github.com/synthetichealth/synthea","value":"6e47dfc0-4d13-3e68-82f1-44d75375b089"}],"status":"active","name":"CHELSEA JEWISH VISITING NURSE AGENCY","telecom":[{"system":"phone","value":"6178870826"}],"address":{"line":["123 CAPTAIN'S ROW"],"city":"CHELSEA","state":"MA","postalCode":"021504019","country":"US"},"position":{"longitude":-71.0328284,"latitude":42.3917638},"managingOrganization":{"identifier":{"system":"https://github.com/synthetichealth/synthea","value":"22fa6d28-92b6-3446-a388-f5aba50debaf"},"display":"CHELSEA JEWISH VISITING NURSE AGENCY"}}
{"resourceType":"Location","id":"479da8cb-9507-3edc-869f-606464faed41","meta":{"profile":["http://hl7.org/fhir/us/core/StructureDefinition/us-core-location"]},"identifier":[{"system":"https://github.com/synthetichealth/synthea","value":"479da8cb-9507-3edc-869f-606464faed41"}],"status":"active","name":"MEASURED WELLNESS LLC","telecom":[{"system":"phone","value":"5137482498"}],"address":{"line":["47 SEAVERNS AVE # 5"],"city":"BROOKLINE","state":"MA","postalCode":"024463806","country":"US"},"position":{"longitude":-71.1211635,"latitude":42.3317642},"managingOrganization":{"identifier":{"system":"https://github.com/synthetichealth/synthea","value":"0a689d33-2b0d-3942-8de8-e28812e91c69"},"display":"MEASURED WELLNESS LLC"}}
{"resourceType":"Location","id":"27407456-b0b2-3504-9991-51a49f82992d","meta":{"profile":["http://hl7.org/fhir/us/core/StructureDefinition/us-core-location"]},"identifier":[{"system":"https://github.com/synthetichealth/synthea","value":"27407456-b0b2-3504-9991-51a49f82992d"}],"status":"active","name":"FENWAY COMMUNITY HEALTH CENTER, INC","telecom":[{"system":"phone","value":"6179274880"}],"address":{"line":["1340 BOYLSTON ST"],"city":"BOSTON","state":"MA","postalCode":"022154302","country":"US"},"position":{"longitude":-71.09888049065322,"latitude":42.34392675},"managingOrganization":{"identifier":{"system":"https://github.com/synthetichealth/synthea","value":"1b3fe590-8793-3f08-865d-01fc425a84d4"},"display":"FENWAY COMMUNITY HEALTH CENTER, INC"}}
{"resourceType":"Location","id":"9f5ea05f-3aae-346c-aab0-755a1b8784fe","meta":{"profile":["http://hl7.org/fhir/us/core/StructureDefinition/us-core-location"]},"identifier":[{"system":"https://github.com/synthetichealth/synthea","value":"9f5ea05f-3aae-346c-aab0-755a1b8784fe"}],"status":"active","name":"NEB OPERATOR LLC","telecom":[{"system":"phone","value":"6177269700"}],"address":{"line":["70 FULTON ST"],"city":"BOSTON","state":"MA","postalCode":"021091402","country":"US"},"position":{"longitude":-71.05377386223965,"latitude":42.362439499999994},"managingOrganization":{"identifier":{"system":"https://github.com/synthetichealth/synthea","value":"9c9d017c-0a4d-3e03-9802-4d310ea05c71"},"display":"NEB OPERATOR LLC"}}
{"resourceType":"Location","id":"6700c70b-6981-31a9-b860-d57a4c9c8e17","meta":{"profile":["http://hl7.org/fhir/us/core/StructureDefinition/us-core-location"]},"identifier":[{"system":"https://github.com/synthetichealth/synthea","value":"6700c70b-6981-31a9-b860-d57a4c9c8e17"}],"status":"active","name":"STANFORD HEALTH CARE","telecom":[{"system":"phone","value":"6507234000"}],"address":{"line":["300 PASTEUR DRIVE"],"city":"NEWTON","state":"MA","postalCode":"024592058","country":"US"},"position":{"longitude":-71.2092214,"latitude":42.3370414},"managingOrganization":{"identifier":{"system":"https://github.com/synthetichealth/synthea","value":"f1664435-2eca-3eff-bd1a-13701e7ad1bd"},"display":"STANFORD HEALTH CARE"}}
{"resourceType":"Location","id":"8069deba-63dc-3db3-9d53-e7ac62187230","meta":{"profile":["http://hl7.org/fhir/us/core/StructureDefinition/us-core-location"]},"identifier":[{"system":"https://github.com/synthetichealth/synthea","value":"8069deba-63dc-3db3-9d53-e7ac62187230"}],"status":"active","name":"NEW ENGLAND BAPTIST HOSPITAL","telecom":[{"system":"phone","value":"6177545800"}],"address":{"line":["125 PARKER HILL AVENUE"],"city":"DEDHAM","state":"MA","postalCode":"020266146","country":"US"},"position":{"longitude":-71.1755732,"latitude":42.2489143},"managingOrganization":{"identifier":{"system":"https://github.com/synthetichealth/synthea","value":"125eccb3-d003-34ea-9bd8-360dff059782"},"display":"NEW ENGLAND BAPTIST HOSPITAL"}}
{"resourceType":"Location","id":"b0801822-b858-36c3-9f64-2d20e9683e32","meta":{"profile":["http://hl7.org/fhir/us/core/StructureDefinition/us-core-location"]},"identifier":[{"system":"https://github.com/synthetichealth/synthea","value":"b0801822-b858-36c3-9f64-2d20e9683e32"}],"status":"active","name":"PARK, MARION AND VERNON STREETS OPERATING COMPANY LLC","telecom":[{"system":"phone","value":"6177311050"}],"address":{"line":["99 PARK STREET"],"city":"BROOKLINE","state":"MA","postalCode":"024464406","country":"US"},"position":{"longitude":-71.1238599,"latitude":42.3398029},"managingOrganization":{"identifier":{"system":"https://github.com/synthetichealth/synthea","value":"52323856-2b6a-3c09-8277-7d4ff9cb325a"},"display":"PARK, MARION AND VERNON STREETS OPERATING COMPANY LLC"}}
{"resourceType":"Location","id":"be426cd9-68fe-3d3c-92e9-dcd858acb10f","meta":{"profile":["http://hl7.org/fhir/us/core/StructureDefinition/us-core-location"]},"identifier":[{"system":"https://github.com/synthetichealth/synthea","value":"be426cd9-68fe-3d3c-92e9-dcd858acb10f"}],"status":"active","name":"WALDEN BEHAVIORAL CARE LLC","telecom":[{"system":"phone","value":"7816476700"}],"address":{"line":["10 CAREMATRIX DR"],"city":"DEDHAM","state":"MA","postalCode":"020266149","country":"US"},"position":{"longitude":-71.17237295563174,"latitude":42.2270762},"managingOrganization":{"identifier":{"system":"https://github.com/synthetichealth/synthea","value":"b242f971-3c74-3778-b148-81366c1e6a3f"},"display":"WALDEN BEHAVIORAL CARE LLC"}}
{"resourceType":"Location","id":"607b87eb-4222-30ff-8d5a-112b7e310856","meta":{"profile":["http://hl7.org/fhir/us/core/StructureDefinition/us-core-location"]},"identifier":[{"system":"https://github.com/synthetichealth/synthea","value":"607b87eb-4222-30ff-8d5a-112b7e310856"}],"status":"active","name":"SPAULDING NURSING AND THERAPY CENTER BRIGHTON, INC.","telecom":[{"system":"phone","value":"6177269700"}],"address":{"line":["100 N BEACON ST"],"city":"ALLSTON","state":"MA","postalCode":"021341928","country":"US"},"position":{"longitude":-71.1375978,"latitude":42.3536388},"managingOrganization":{"identifier":{"system":"https://github.com/synthetichealth/synthea","value":"99a31e4a-04aa-334b-9e96-904f01483d93"},"display":"SPAULDING NURSING AND THERAPY CENTER BRIGHTON, INC."}}
{"resourceType":"Location","id":"68f95c8c-f686-3d3b-a438-7b0fb4aa7b30","meta":{"profile":["http://hl7.org/fhir/us/core/StructureDefinition/us-core-location"]},"identifier":[{"system":"https://github.com/synthetichealth/synthea","value":"68f95c8c-f686-3d3b-a438-7b0fb4aa7b30"}],"status":"active","name":"ENGRACE HEALTHCARE PRACTICE LLC","telecom":[{"system":"phone","value":"6177391122"}],"address":{"line":["1223 BEACON ST STE A"],"city":"BROOKLINE","state":"MA","postalCode":"024465332","country":"US"},"position":{"longitude":-71.1170155,"latitude":42.3430087},"managingOrganization":{"identifier":{"system":"https://github.com/synthetichealth/synthea","value":"e5b9db6a-8dd8-3622-b9ce-3dc593e111d1"},"display":"ENGRACE HEALTHCARE PRACTICE LLC"}}
{"resourceType":"Location","id":"d3671987-5b1a-379f-a865-a218b46e5739","meta":{"profile":["http://hl7.org/fhir/us/core/StructureDefinition/us-core-location"]},"identifier":[{"system":"https://github.com/synthetichealth/synthea","value":"d3671987-5b1a-379f-a865-a218b46e5739"}],"status":"active","name":"BOSTON HEALTH CARE FOR THE HOMELESS PROGRAM INC","telecom":[{"system":"phone","value":"6175342881"}],"address":{"line":["112 SOUTHAMPTON ST"],"city":"BOSTON","state":"MA","postalCode":"021182711","country":"US"},"position":{"longitude":-71.06915010706255,"latitude":42.33240995},"managingOrganization":{"identifier":{"system":"https://github.com/synthetichealth/synthea","value":"ce3b504c-f15c-3bcf-ba6e-dcb551cc7d7f"},"display":"BOSTON HEALTH CARE FOR THE HOMELESS PROGRAM INC"}}
{"resourceType":"Location","id":"5e756e0c-7c6b-37c0-8bd5-eebe86c41e5e","meta":{"profile":["http://hl7.org/fhir/us/core/StructureDefinition/us-core-location"]},"identifier":[{"system":"https://github.com/synthetichealth/synthea","value":"5e756e0c-7c6b-37c0-8bd5-eebe86c41e5e"}],"status":"active","name":"ASSOCIATED PHYSICIANS OF HARVARD MEDICAL FACULTY PHYSICIANS AT BETH IS","telecom":[{"system":"phone","value":"6176964600"}],"address":{"line":["199 REEDSDALE RD"],"city":"WALTHAM","state":"MA","postalCode":"024511433","country":"US"},"position":{"longitude":-71.2358004,"latitude":42.3756401},"managingOrganization":{"identifier":{"system":"https://github.com/synthetichealth/synthea","value":"19a3afba-b409-3650-a0ab-f3faf6e391ef"},"display":"ASSOCIATED PHYSICIANS OF HARVARD MEDICAL FACULTY PHYSICIANS AT BETH IS"}}
{"resourceType":"Location","id":"77d6b775-a7f6-35f8-ab2c-edc0b43702c1","meta":{"profile":["http://hl7.org/fhir/us/core/StructureDefinition/us-core-location"]},"identifier":[{"system":"https://github.com/synthetichealth/synthea","value":"77d6b775-a7f6-35f8-ab2c-edc0b43702c1"}],"status":"active","name":"GOOD SHEPHERD COMMUNITY CARE","telecom":[{"system":"phone","value":"6179696130"}],"address":{"line":["160 WELLS AVENUE"],"city":"NEWTON","state":"MA","postalCode":"024593302","country":"US"},"position":{"longitude":-71.19806353028767,"latitude":42.29337605},"managingOrganization":{"identifier":{"system":"https://github.com/synthetichealth/synthea","value":"e68de1a0-767e-3466-b9a6-43948ee073d3"},"display":"GOOD SHEPHERD COMMUNITY CARE"}}
{"resourceType":"Location","id":"aeef7e2a-7ec8-3996-b407-b3cbc8ab9949","meta":{"profile":["http://hl7.org/fhir/us/core/StructureDefinition/us-core-location"]},"identifier":[{"system":"https://github.com/synthetichealth/synthea","value":"aeef7e2a-7ec8-3996-b407-b3cbc8ab9949"}],"status":"active","name":"ARBOUR HOSPITAL, THE","telecom":[{"system":"phone","value":"6175224400"}],"address":{"line":["49 ROBINWOOD AVENUE"],"city":"QUINCY","state":"MA","postalCode":"021698130","country":"US"},"position":{"longitude":-71.0037374,"latitude":42.2509914},"managingOrganization":{"identifier":{"system":"https://github.com/synthetichealth/synthea","value":"cbebae9e-f95e-3d2c-9712-289ea8d6aeec"},"display":"ARBOUR HOSPITAL, THE"}}
{"resourceType":"Location","id":"82124168-4cb2-3c86-b3a3-9312d3076920","meta":{"profile":["http://hl7.org/fhir/us/core/StructureDefinition/us-core-location"]},"identifier":[{"system":"https://github.com/synthetichealth/synthea","value":"82124168-4cb2-3c86-b3a3-9312d3076920"}],"status":"active","name":"HEBREW REHABILITATION CENTER","telecom":[{"system":"phone","value":"6173258000"}],"address":{"line":["1200 CENTRE ST"],"city":"ROSLINDALE","state":"MA","postalCode":"021311000","country":"US"},"position":{"longitude":-71.130463,"latitude":42.29768},"managingOrganization":{"identifier":{"system":"https://github.com/synthetichealth/synthea","value":"5862e05c-9533-3f7a-8f73-215d50f5ee2f"},"display":"HEBREW REHABILITATION CENTER"}}
{"resourceType":"Location","id":"b6242fe8-36d1-34ff-9a4f-aa427ce442a2","meta":{"profile":["http://hl7.org/fhir/us/core/StructureDefinition/us-core-location"]},"identifier":[{"system":"https://github.com/synthetichealth/synthea","value":"b6242fe8-36d1-34ff-9a4f-aa427ce442a2"}],"status":"active","name":"MOUNT AUBURN HOSPITAL","telecom":[{"system":"phone","value":"6174923500"}],"address":{"line":["330 MOUNT AUBURN ST"],"city":"CAMBRIDGE","state":"MA","postalCode":"021385502","country":"US"},"position":{"longitude":-71.13417575971958,"latitude":42.3741033},"managingOrganization":{"identifier":{"system":"https://github.com/synthetichealth/synthea","value":"a5577e5c-b886-37a0-8eee-8ff6feb7ea6b"},"display":"MOUNT AUBURN HOSPITAL"}}
{"resourceType":"Location","id":"57c3d2c6-bff6-3bb9-b185-cbb70dd19cbe","meta":{"profile":["http://hl7.org/fhir/us/core/StructureDefinition/us-core-location"]},"identifier":[{"system":"https://github.com/synthetichealth/synthea","value":"57c3d2c6-bff6-3bb9-b185-cbb70dd19cbe"}],"status":"active","name":"MATTAPAN COMMUNITY HEALTH CENTER","telecom":[{"system":"phone","value":"6172960061"}],"address":{"line":["1425 BLUE HILL AVENUE"],"city":"MATTAPAN","state":"MA","postalCode":"021262122","country":"US"},"position":{"longitude":-71.09384131587021,"latitude":42.2754929},"managingOrganization":{"identifier":{"system":"https://github.com/synthetichealth/synthea","value":"966245ce-e84d-36b0-a838-2e0b5bb2e668"},"display":"MATTAPAN COMMUNITY HEALTH CENTER"}}
{"resourceType":"Location","id":"bc1a6220-02d5-37e1-9389-1d95a0169472","meta":{"profile":["http://hl7.org/fhir/us/core/StructureDefinition/us-core-location"]},"identifier":[{"system":"https://github.com/synthetichealth/synthea","value":"bc1a6220-02d5-37e1-9389-1d95a0169472"}],"status":"active","name":"STEWARD ST ELIZABETHS MEDICAL CENTER OF BOSTON INC","telecom":[{"system":"phone","value":"6177893000"}],"address":{"line":["736 CAMBRIDGE ST"],"city":"BRIGHTON","state":"MA","postalCode":"021353601","country":"US"},"position":{"longitude":-71.14799584850206,"latitude":42.348649949999995},"managingOrganization":{"identifier":{"system":"https://github.com/synthetichealth/synthea","value":"4eddfa13-f996-3048-9bbc-541b0a29038a"},"display":"STEWARD ST ELIZABETHS MEDICAL CENTER OF BOSTON INC"}}
{"resourceType":"Location","id":"580dfad8-45bd-3de0-8636-3140d44a4ba5","meta":{"profile":["http://hl7.org/fhir/us/core/StructureDefinition/us-core-location"]},"identifier":[{"system":"https://github.com/synthetichealth/synthea","value":"580dfad8-45bd-3de0-8636-3140d44a4ba5"}],"status":"active","name":"CAMBRIDGE PUBLIC HEALTH COMMISSION","telecom":[{"system":"phone","value":"6176651000"}],"address":{"line":["1493 CAMBRIDGE ST"],"city":"SOMERVILLE","state":"MA","postalCode":"021452935","country":"US"},"position":{"longitude":-71.0994968,"latitude":42.3875968},"managingOrganization":{"identifier":{"system":"https://github.com/synthetichealth/synthea","value":"bac9dc0c-cb0f-3fa6-aa12-819dd0fb922a"},"display":"CAMBRIDGE PUBLIC HEALTH COMMISSION"}}
{"resourceType":"Location","id":"cf117c25-4eca-3432-af54-bf059141b5ea","meta":{"profile":["http://hl7.org/fhir/us/core/StructureDefinition/us-core-location"]},"identifier":[{"system":"https://github.com/synthetichealth/synthea","value":"cf117c25-4eca-3432-af54-bf059141b5ea"}],"status":"active","name":"MASS GENERAL BRIGHAM URGENT CARE LLC","telecom":[{"system":"phone","value":"6177516205"}],"address":{"line":["1285 BEACON ST"],"city":"WOBURN","state":"MA","postalCode":"018012157","country":"US"},"position":{"longitude":-71.1684508,"latitude":42.4979478},"managingOrganization":{"identifier":{"system":"https://github.com/synthetichealth/synthea","value":"a25107f7-f4f5-36fc-98e4-f3e1b5875c91"},"display":"MASS GENERAL BRIGHAM URGENT CARE LLC"}}
{"resourceType":"Location","id":"ccee49c3-77cc-3ee5-b280-ebb441a148a6","meta":{"profile":["http://hl7.org/fhir/us/core/StructureDefinition/us-core-location"]},"identifier":[{"system":"https://github.com/synthetichealth/synthea","value":"ccee49c3-77cc-3ee5-b280-ebb441a148a6"}],"status":"active","name":"Boston Vet Center","telecom":[{"system":"phone","value":"857-203-6461"}],"address":{"line":["7 Drydock Ave, Suite 2070"],"city":"Boston","state":"MA","postalCode":"02210","country":"US"},"position":{"longitude":-71.03728,"latitude":42.34461},"managingOrganization":{"identifier":{"system":"https://github.com/synthetichealth/synthea","value":"45db4ed7-a93e-3946-9c31-b567ca373de6"},"display":"Boston Vet Center"}}
{"resourceType":"Location","id":"5c9dd551-db01-397f-8904-89e06403fc3a","meta":{"profile":["http://hl7.org/fhir/us/core/StructureDefinition/us-core-location"]},"identifier":[{"system":"https://github.com/synthetichealth/synthea","value":"5c9dd551-db01-397f-8904-89e06403fc3a"}],"status":"active","name":"FAMILY AND COMMUNITY SOLUTIONS INC","telecom":[{"system":"phone","value":"6177871901"}],"address":{"line":["77B WARREN ST"],"city":"BRIGHTON","state":"MA","postalCode":"021353601","country":"US"},"position":{"longitude":-71.14205064012461,"latitude":42.348002699999995},"managingOrganization":{"identifier":{"system":"https://github.com/synthetichealth/synthea","value":"63b93742-6c13-3309-92b6-f7c858e9f320"},"display":"FAMILY AND COMMUNITY SOLUTIONS INC"}}
{"resourceType":"Location","id":"1c76c5e9-c508-37a9-9c26-074024a1140c","meta":{"profile":["http://hl7.org/fhir/us/core/StructureDefinition/us-core-location"]},"identifier":[{"system":"https://github.com/synthetichealth/synthea","value":"1c76c5e9-c508-37a9-9c26-074024a1140c"}],"status":"active","name":"BOSTON HEALTH CARE FOR THE HOMELESS PROGRAM INC","telecom":[{"system":"phone","value":"6173711723"}],"address":{"line":["17 COURT ST"],"city":"BOSTON","state":"MA","postalCode":"021082601","country":"US"},"position":{"longitude":-71.0583916,"latitude":42.3590416},"managingOrganization":{"identifier":{"system":"https://github.com/synthetichealth/synthea","value":"4a2eeae3-1d8f-3933-b177-f8b74b103338"},"display":"BOSTON HEALTH CARE FOR THE HOMELESS PROGRAM INC"}}
{"resourceType":"Location","id":"4a965fe6-ab2b-3740-bb4b-ce27c570e2ed","meta":{"profile":["http://hl7.org/fhir/us/core/StructureDefinition/us-core-location"]},"identifier":[{"system":"https://github.com/synthetichealth/synthea","value":"4a965fe6-ab2b-3740-bb4b-ce27c570e2ed"}],"status":"active","name":"THE SHRINERS HOSPITAL FOR CHILDREN","telecom":[{"system":"phone","value":"1617722300"}],"address":{"line":["51 BLOSSOM ST"],"city":"BOSTON","state":"MA","postalCode":"021142699","country":"US"},"position":{"longitude":-71.06643399281765,"latitude":42.36305545},"managingOrganization":{"identifier":{"system":"https://github.com/synthetichealth/synthea","value":"9adfae03-673d-365d-9052-f705098fa3e4"},"display":"THE SHRINERS HOSPITAL FOR CHILDREN"}}
{"resourceType":"Location","id":"898bf9dd-7c23-3a37-af14-8e8e1a8a791d","meta":{"profile":["http://hl7.org/fhir/us/core/StructureDefinition/us-core-location"]},"identifier":[{"system":"https://github.com/synthetichealth/synthea","value":"898bf9dd-7c23-3a37-af14-8e8e1a8a791d"}],"status":"active","name":"BOSTON PAIN CLINIC & PRIMARY CARE PC","telecom":[{"system":"phone","value":"6173612166"}],"address":{"line":["188 PROVIDENCE ST"],"city":"HYDE PARK","state":"MA","postalCode":"021361861","country":"US"},"position":{"longitude":-71.12174592925336,"latitude":42.2682551},"managingOrganization":{"identifier":{"system":"https://github.com/synthetichealth/synthea","value":"48a07866-e8d7-3268-aa3c-ca3237c8e6f3"},"display":"BOSTON PAIN CLINIC & PRIMARY CARE PC"}}
{"resourceType":"Location","id":"a93aa7ab-bc20-3436-8f07-f5f80b23f10c","meta":{"profile":["http://hl7.org/fhir/us/core/StructureDefinition/us-core-location"]},"identifier":[{"system":"https://github.com/synthetichealth/synthea","value":"a93aa7ab-bc20-3436-8f07-f5f80b23f10c"}],"status":"active","name":"CHAE INTERNAL MEDICINE LLC","telecom":[{"system":"phone","value":"6178764344"}],"address":{"line":["70 FULTON ST"],"city":"BOSTON","state":"MA","postalCode":"021091402","country":"US"},"position":{"longitude":-71.05377386223965,"latitude":42.362439499999994},"managingOrganization":{"identifier":{"system":"https://github.com/synthetichealth/synthea","value":"9f85a8c8-007c-3490-a7b7-4a0324c13307"},"display":"CHAE INTERNAL MEDICINE LLC"}}
{"resourceType":"Location","id":"f2f85e63-e43d-33fb-8755-0eee7d41e7e9","meta":{"profile":["http://hl7.org/fhir/us/core/StructureDefinition/us-core-location"]},"identifier":[{"system":"https://github.com/synthetichealth/synthea","value":"f2f85e63-e43d-33fb-8755-0eee7d41e7e9"}],"status":"active","name":"THE GENERAL HOSPITAL CORPORATION","telecom":[{"system":"phone","value":"6177262000"}],"address":{"line":["55 FRUIT ST"],"city":"WALTHAM","state":"MA","postalCode":"02451","country":"US"},"position":{"longitude":-71.2358004,"latitude":42.3756401},"managingOrganization":{"identifier":{"system":"https://github.com/synthetichealth/synthea","value":"25431f9a-00e4-36d8-9810-4125328eec50"},"display":"THE GENERAL HOSPITAL CORPORATION"}}
{"resourceType":"Location","id":"ec828444-a329-332a-af8e-df648ced7a7a","meta":{"profile":["http://hl7.org/fhir/us/core/StructureDefinition/us-core-location"]},"identifier":[{"system":"https://github.com/synthetichealth/synthea","value":"ec828444-a329-332a-af8e-df648ced7a7a"}],"status":"active","name":"WHITTIER REHABILTATION HOSPITAL","telecom":[{"system":"phone","value":"5088712063"}],"address":{"line":["150 FLANDERS ROAD"],"city":"LYNN","state":"MA","postalCode":"019042915","country":"US"},"position":{"longitude":-70.9494939,"latitude":42.466763},"managingOrganization":{"identifier":{"system":"https://github.com/synthetichealth/synthea","value":"89171335-b9c0-3326-98d6-a837d432b9fd"},"display":"WHITTIER REHABILTATION HOSPITAL"}}
{"resourceType":"Location","id":"16162e2e-393c-3162-8e09-a84a60d825c4","meta":{"profile":["http://hl7.org/fhir/us/core/StructureDefinition/us-core-location"]},"identifier":[{"system":"https://github.com/synthetichealth/synthea","value":"16162e2e-393c-3162-8e09-a84a60d825c4"}],"status":"active","name":"WHITLEY WELLNESS LLC","telecom":[{"system":"phone","value":"3254399799"}],"address":{"line":["8 SHIPWAY PL # C-8"],"city":"CHARLESTOWN","state":"MA","postalCode":"021294301","country":"US"},"position":{"longitude":-71.0619957,"latitude":42.3778749},"managingOrganization":{"identifier":{"system":"https://github.com/synthetichealth/synthea","value":"e2a8b444-9b8f-36ff-84c4-05ee98589482"},"display":"WHITLEY WELLNESS LLC"}}
{"resourceType":"Location","id":"06bc4ae1-b05b-3d20-8095-a7a1d54cf3f7","meta":{"profile":["http://hl7.org/fhir/us/core/StructureDefinition/us-core-location"]},"identifier":[{"system":"https://github.com/synthetichealth/synthea","value":"06bc4ae1-b05b-3d20-8095-a7a1d54cf3f7"}],"status":"active","name":"VA Boston Healthcare System, Jamaica Plain Campus","telecom":[{"system":"phone","value":"617-232-9500"}],"address":{"line":["150 South Huntington Avenue"],"city":"Jamaica Plain","state":"MA","postalCode":"02130","country":"US"},"position":{"longitude":-71.11076,"latitude":42.32809},"managingOrganization":{"identifier":{"system":"https://github.com/synthetichealth/synthea","value":"05f80ed8-6a7a-3728-8b5c-c5c995c8244a"},"display":"VA Boston Healthcare System, Jamaica Plain Campus"}}
{"resourceType":"Location","id":"1be621ef-e6e5-3cc1-aa08-29bd4a485f6b","meta":{"profile":["http://hl7.org/fhir/us/core/StructureDefinition/us-core-location"]},"identifier":[{"system":"https://github.com/synthetichealth/synthea","value":"1be621ef-e6e5-3cc1-aa08-29bd4a485f6b"}],"status":"active","name":"PATRIOT URGENT CARE PROFESSIONALS PC","telecom":[{"system":"phone","value":"7818946900"}],"address":{"line":["1030 MAIN STREET"],"city":"WALTHAM","state":"MA","postalCode":"024517447","country":"US"},"position":{"longitude":-71.2527956,"latitude":42.375828},"managingOrganization":{"identifier":{"system":"https://github.com/synthetichealth/synthea","value":"121b0ad1-1beb-3caa-9271-3d3f726bb727"},"display":"PATRIOT URGENT CARE PROFESSIONALS PC"}}
{"resourceType":"Location","id":"a2a1d431-b8b8-3e6a-9bc4-2fc8f2bdc7a7","meta":{"profile":["http://hl7.org/fhir/us/core/StructureDefinition/us-core-location"]},"identifier":[{"system":"https://github.com/synthetichealth/synthea","value":"a2a1d431-b8b8-3e6a-9bc4-2fc8f2bdc7a7"}],"status":"active","name":"HARVARD STREET NEIGHBORHOOD HEALTH CENTER","telecom":[{"system":"phone","value":"6178253400"}],"address":{"line":["632 BLUE  HILL AVENUE"],"city":"DORCHESTER","state":"MA","postalCode":"021213213","country":"US"},"position":{"longitude":-71.0885355,"latitude":42.2941088},"managingOrganization":{"identifier":{"system":"https://github.com/synthetichealth/synthea","value":"0a2252ba-33de-322f-8f0a-e5b0141f1780"},"display":"HARVARD STREET NEIGHBORHOOD HEALTH CENTER"}}
{"resourceType":"Location","id":"9e3707cb-817a-33e5-86ff-f3e74bcd6b4f","meta":{"profile":["http://hl7.org/fhir/us/core/StructureDefinition/us-core-location"]},"identifier":[{"system":"https://github.com/synthetichealth/synthea","value":"9e3707cb-817a-33e5-86ff-f3e74bcd6b4f"}],"status":"active","name":"CHELSEA JEWISH HOSPICE AND PALLIATIVE CARE","telecom":[{"system":"phone","value":"6178890779"}],"address":{"line":["123 CAPTAIN'S ROW"],"city":"CHELSEA","state":"MA","postalCode":"021504019","country":"US"},"position":{"longitude":-71.0328284,"latitude":42.3917638},"managingOrganization":{"identifier":{"system":"https://github.com/synthetichealth/synthea","value":"b954c464-11ea-312b-a3f8-1350775bfa54"},"display":"CHELSEA JEWISH HOSPICE AND PALLIATIVE CARE"}}
{"resourceType":"Location","id":"59efac45-f8fa-3536-a623-e5ff08eeee53","meta":{"profile":["http://hl7.org/fhir/us/core/StructureDefinition/us-core-location"]},"identifier":[{"system":"https://github.com/synthetichealth/synthea","value":"59efac45-f8fa-3536-a623-e5ff08eeee53"}],"status":"active","name":"PATHWAYS HEALTHCARE LLC","telecom":[{"system":"phone","value":"6174819077"}],"address":{"line":["101 STATION DR STE 240"],"city":"WESTWOOD","state":"MA","postalCode":"020902336","country":"US"},"position":{"longitude":-71.15698168263435,"latitude":42.20728361922244},"managingOrganization":{"identifier":{"system":"https://github.com/synthetichealth/synthea","value":"76baa51d-0d0f-359d-a07b-7b999a43d42e"},"display":"PATHWAYS HEALTHCARE LLC"}}
{"resourceType":"Location","id":"98ff396e-d95e-3289-9b7f-077fb7065d30","meta":{"profile":["http://hl7.org/fhir/us/core/StructureDefinition/us-core-location"]},"identifier":[{"system":"https://github.com/synthetichealth/synthea","value":"98ff396e-d95e-3289-9b7f-077fb7065d30"}],"status":"active","name":"HEBREW SENIORLIFE AFFILIATED MEDICAL GROUP INC","telecom":[{"system":"phone","value":"6179715766"}],"address":{"line":["1200 CENTRE ST"],"city":"ROSLINDALE","state":"MA","postalCode":"021311000","country":"US"},"position":{"longitude":-71.130463,"latitude":42.29768},"managingOrganization":{"identifier":{"system":"https://github.com/synthetichealth/synthea","value":"c709c5eb-ddd7-3778-84f7-0931a4d1c718"},"display":"HEBREW SENIORLIFE AFFILIATED MEDICAL GROUP INC"}}
{"resourceType":"Location","id":"67360194-4f7d-3b03-839b-981516b90fe1","meta":{"profile":["http://hl7.org/fhir/us/core/StructureDefinition/us-core-location"]},"identifier":[{"system":"https://github.com/synthetichealth/synthea","value":"67360194-4f7d-3b03-839b-981516b90fe1"}],"status":"active","name":"SENIOR HEALTHCARE ASSOCIATES INC","telecom":[{"system":"phone","value":"7816421859"}],"address":{"line":["83 LITTLEFIELD RD"],"city":"NEWTON","state":"MA","postalCode":"024593010","country":"US"},"position":{"longitude":-71.18883283411856,"latitude":42.3104327},"managingOrganization":{"identifier":{"system":"https://github.com/synthetichealth/synthea","value":"d70d47dc-b40c-3a04-8342-35cbfe716409"},"display":"SENIOR HEALTHCARE ASSOCIATES INC"}}
{"resourceType":"Location","id":"d6dee237-1869-3f35-9bc5-45ed01391c83","meta":{"profile":["http://hl7.org/fhir/us/core/StructureDefinition/us-core-location"]},"identifier":[{"system":"https://github.com/synthetichealth/synthea","value":"d6dee237-1869-3f35-9bc5-45ed01391c83"}],"status":"active","name":"SPAULDING HOSPITAL FOR CONTINUING MED CARE-CAMB","telecom":[{"system":"phone","value":"6178764344"}],"address":{"line":["1575 CAMBRIDGE ST"],"city":"CAMBRIDGE","state":"MA","postalCode":"021384308","country":"US"},"position":{"longitude":-71.10711344152975,"latitude":42.375209549999994},"managingOrganization":{"identifier":{"system":"https://github.com/synthetichealth/synthea","value":"ba07b31b-bf14-39b8-be95-4c5ca5062daa"},"display":"SPAULDING HOSPITAL FOR CONTINUING MED CARE-CAMB"}}
{"resourceType":"Location","id":"bb1ad573-19b8-9cd8-68fb-0e6f684df992","identifier":[{"system":"https://github.com/synthetichealth/synthea","value":"bb1ad573-19b8-9cd8-68fb-0e6f684df992"}],"status":"active","description":"Patient's Home","mode":"kind","physicalType":{"coding":[{"system":"http://terminology.hl7.org/CodeSystem/location-physical-type","code":"ho","display":"House"}]}}
